lon,lat,label
27.479,42.486,Terminal East
27.47,42.486,Terminal Bulk Cargoes
27.467,42.48,Terminal 2A
27.457,42.485,Terminal West
27.53,42.45,Terminal Rosenets
27.728,42.657,Terminal Nessebar
27.687,42.42,Terminal Sozopol